name,lat,lon,demand,population
Connaught Place,28.6304,77.2177,920,145000
Saket,28.5244,77.2066,780,112000
Nehru Place,28.5494,77.2501,850,128000
Rajouri Garden,28.6415,77.1219,690,98000
Dwarka,28.5921,77.0460,620,85000
Rohini,28.7495,77.0736,710,102000
Lajpat Nagar,28.5678,77.2431,740,95000
Karol Bagh,28.6519,77.1906,800,118000
Vasant Kunj,28.5177,77.1581,670,89000
Pitampura,28.6980,77.1318,640,82000